<?xml version='1.0' encoding='utf-8'?>
<kml xmlns="http://www.opengis.net/kml/2.2"><Document><name>Bangkok – Zonas de alojamiento + tus hoteles</name><Style id="zona_estilo"><IconStyle><color>ff7f00ff</color><scale>1.3</scale><Icon><href>http://maps.google.com/mapfiles/kml/shapes/lodging.png</href></Icon></IconStyle></Style><Style id="hotel_estilo"><IconStyle><color>ff00ffff</color><scale>1.4</scale><Icon><href>http://maps.google.com/mapfiles/kml/shapes/placemark_circle.png</href></Icon></IconStyle></Style><Placemark><name>Riverside / Saphan Taksin</name><styleUrl>#zona_estilo</styleUrl><Point><coordinates>100.5169,13.7189,0</coordinates></Point></Placemark><Placemark><name>Sukhumvit (Asok–Phrom Phong)</name><styleUrl>#zona_estilo</styleUrl><Point><coordinates>100.5562,13.7356,0</coordinates></Point></Placemark><Placemark><name>Chinatown (Yaowarat)</name><styleUrl>#zona_estilo</styleUrl><Point><coordinates>100.51,13.7395,0</coordinates></Point></Placemark><Placemark><name>Old City (Khao San / Rattanakosin)</name><styleUrl>#zona_estilo</styleUrl><Point><coordinates>100.4972,13.7589,0</coordinates></Point></Placemark><Placemark><name>Cassia Rama 9 Bangkok</name><styleUrl>#hotel_estilo</styleUrl><Point><coordinates>100.5846,13.7476,0</coordinates></Point></Placemark><Placemark><name>MANGO Lagoon Place</name><styleUrl>#hotel_estilo</styleUrl><Point><coordinates>100.497,13.7596,0</coordinates></Point></Placemark></Document></kml>